,City,Cloudiness,Country,Date,Humidity,Lat,Lng,Max Temp,Wind Speed
0,baykit,90,CA,1556596545,43,53.71,-111.75,36.80060000000005,2.81
1,puerto leguizamo,100,AU,1556596545,52,-23.58,149.07,76.94060000000007,6.84
2,codrington,75,CL,1556596402,86,-53.16,-70.91,37.4,4.6
3,salym,90,NZ,1556596212,84,-46.19,168.86,55.004000000000055,0.45
4,hobart,90,CA,1556596507,60,45.36,-73.48,44.00600000000003,2.22
5,kapaa,100,PF,1556596546,68,-23.12,-134.97,72.26060000000004,9.81
6,cape town,1,CA,1556593200,85,70.47,-68.59,12.2,3.6
7,conceicao do araguaia,72,MG,1556596546,99,-14.9,50.28,67.76060000000004,1.48
8,rikitea,0,FR,1556596524,87,45.6,-0.6,46.004000000000055,2.1
9,ushuaia,0,RU,1556596377,79,59.7,30.79,37.004000000000055,1.44
10,palabuhanratu,21,RU,1556596549,28,50.29,130.28,66.50060000000005,5.67
11,illoqqortoormiut,75,US,1556596547,88,29.74,-97.91,73.99400000000007,3.6
12,busselton,0,MZ,1556596549,95,-24.69,33.53,65.78059999999999,1.36
13,la ronge,75,JP,1556593200,16,43.76,142.37,69.8,8.7
14,georgetown,75,AR,1556593200,72,-54.81,-68.31,33.8,8.7
15,comitan,75,IN,1556593200,88,15.34,74.49,77.0,3.1
16,nanortalik,0,ZA,1556593200,46,-33.02,27.91,71.6,5.7
17,evensk,75,CY,1556595963,55,34.92,32.53,66.2,0.5
18,tupik,6,MX,1556596550,20,18.62,-100.35,89.1806,1.13
19,butaritari,20,CA,1556596381,55,62.45,-114.38,8.600000000000001,6.7
20,mount isa,96,AU,1556596473,36,-33.64,115.35,66.99199999999999,7.76
21,ribeira grande,0,ZA,1556596383,87,-33.93,18.42,60.008,2.6
22,bluff,75,CN,1556596436,93,29.72,120.23,64.99400000000007,2.0
23,medea,97,RU,1556596551,99,63.05,179.32,33.560600000000036,4.75
24,nizhneyansk,40,GY,1556593200,94,6.8,-58.16,75.2,2.1
25,jamestown,75,CA,1556593200,64,55.1,-105.3,37.4,2.6
26,tuktoyaktuk,0,AU,1556596515,37,-42.78,147.06,71.00600000000003,5.7
27,leningradskiy,90,CA,1556593200,72,49.72,-86.95,32.0,3.6
28,vaini,0,AU,1556596515,37,-42.88,147.33,71.00600000000003,5.7
29,albany,20,ES,1556596255,72,28.66,-17.92,64.4,4.6
30,magalia,0,MX,1556596553,84,27.97,-114.04,63.08059999999999,3.44
31,cabo san lucas,75,PF,1556596398,69,-17.5,-149.87,82.4,1.5
32,tiksi,75,JP,1556596498,82,35.76,139.74,66.00200000000008,8.2
33,chuy,51,GB,1556596518,70,51.59,-3.0,46.4,2.6
34,yellowknife,100,ZA,1556595928,87,-34.53,20.04,59.0,1.0
35,camopi,0,GR,1556594400,62,39.45,22.34,53.6,5.1
36,touros,0,FR,1556596450,75,44.83,-0.61,46.4,2.6
37,puerto ayora,0,DZ,1556596555,17,27.87,-0.29,79.82060000000001,3.13
38,hasaki,75,US,1556596400,83,22.08,-159.32,77.0,7.7
39,paragould,40,RU,1556593200,77,69.49,88.39,3.1999999999999993,3.0
40,kholtoson,90,US,1556596420,28,39.95,-94.76,57.992,4.6
41,faanui,0,MZ,1556596556,93,-23.87,35.38,64.88059999999999,0.94
42,port alfred,23,ID,1556596556,71,-8.35,113.61,83.06060000000004,1.8
43,avera,100,AU,1556596557,22,-33.21,138.6,73.88059999999999,7.24
44,ahipara,0,AR,1556596557,43,-46.43,-67.52,41.84060000000007,4.61
45,marzuq,75,CA,1556593200,60,53.22,-106.39,39.2,5.1
46,kamenskoye,71,RU,1556596557,85,71.98,102.47,11.600600000000053,4.84
47,lyngseidet,0,BR,1556593200,88,-9.67,-35.74,77.0,1.5
48,cockburn town,99,GL,1556596558,62,77.48,-69.36,25.100600000000053,2.32
49,taolanaro,100,PF,1556596558,80,-16.48,-151.75,81.80060000000006,12.2
50,atuona,26,IN,1556596558,72,25.52,90.21,85.22060000000002,4.93
51,dawson creek,95,IS,1556596558,78,65.08,-22.73,46.70060000000005,4.47
52,dejen,60,TR,1556596558,61,40.67,33.6,45.26060000000003,1.77
53,asaba,75,US,1556596400,69,21.35,-158.09,80.6,2.6
54,narsaq,100,BR,1556596559,95,-14.8,-57.29,73.88059999999999,1.04
55,dali,25,FO,1556596559,88,61.47,-6.81,46.70060000000005,5.41
56,najran,90,RU,1556593200,93,64.42,-173.23,37.4,10.0
57,vila velha,20,CL,1556593200,100,-41.87,-73.83,37.4,0.35
58,pevek,75,BO,1556593200,87,-16.5,-68.19,42.8,1.5
59,lebu,83,BR,1556596560,82,-22.97,-42.02,73.88059999999999,1.96
60,aklavik,93,RU,1556596560,94,66.83,70.83,9.260600000000032,3.33
61,souillac,0,ZA,1556595999,97,-34.42,19.24,55.99400000000007,4.99
62,carauari,42,GL,1556592600,39,69.22,-51.1,48.2,11.3
63,hithadhoo,100,LK,1556596560,64,7.94,81.0,86.12060000000001,6.34
64,pathein,0,CL,1556593200,52,-45.58,-72.07,42.8,3.6
65,nouadhibou,3,PT,1556596561,69,38.52,-28.7,59.30060000000005,5.37
66,castro,0,IN,1556593200,74,21.93,69.78,84.2,6.7
67,upernavik,100,BR,1556596561,93,-8.76,-67.39,75.50060000000005,0.66
68,fortuna,20,PT,1556596517,87,37.72,-25.43,57.2,7.2
69,marawi,75,JP,1556596432,88,35.73,140.83,62.99600000000005,7.7
70,hilton head island,13,RU,1556593200,79,61.79,34.39,28.4,1.0
71,provideniya,98,PF,1556596498,75,-9.8,-139.03,82.88059999999999,6.65
72,sompeta,20,MG,1556593200,69,-15.72,46.32,77.0,3.1
73,havre-saint-pierre,1,PL,1556596291,89,52.67,22.32,46.004000000000055,3.05
74,port elizabeth,0,NA,1556593200,93,-26.65,15.16,57.2,2.6
75,dicabisagan,75,JP,1556593200,88,33.72,135.99,64.4,3.1
76,grindavik,100,MV,1556596564,81,-0.6,73.08,84.14060000000008,7.16
77,saint-joseph,40,US,1556596554,76,39.62,-77.74,55.4,5.1
78,tuatapere,100,ID,1556596565,74,-3.31,129.0,84.32060000000001,2.44
79,arraial do cabo,100,RU,1556596565,95,73.51,80.55,1.7006000000000547,3.57
80,caravelas,0,ZA,1556596376,45,-33.59,26.89,80.00600000000003,4.47
81,lompoc,75,BN,1556593200,84,5.28,115.24,87.00800000000001,1.5
82,klaksvik,1,US,1556596563,37,32.66,-114.41,71.6,7.2
83,barguzin,27,RU,1556593200,33,51.92,108.05,57.2,2.0
84,longyearbyen,100,PG,1556596567,64,-3.15,142.36,87.38059999999999,3.96
85,portland,0,LA,1556593200,66,17.4,104.79,87.8,1.5
86,mataura,40,CN,1556593200,81,36.55,104.13,44.6,2.0
87,bambanglipuro,0,NE,1556596568,13,18.74,7.39,81.80060000000006,2.73
88,nicoya,97,RU,1556596568,87,69.7,170.27,29.420600000000015,8.66
89,malovat,0,FR,1556596519,93,47.55,-2.56,51.008,3.1
90,vorgashor,40,TT,1556596208,83,10.24,-61.45,78.99800000000002,3.1
91,bokspits,100,LY,1556596569,32,26.59,12.77,75.14060000000008,5.16
92,egvekinot,36,RU,1556596569,85,71.97,114.09,8.720600000000012,3.51
93,tasiilaq,65,GL,1556592600,70,65.61,-37.64,42.8,14.4
94,nortelandia,0,FR,1556596498,93,48.95,4.24,48.2,4.1
95,real,97,CD,1556596570,72,0.12,29.29,66.32060000000001,1.6
96,hibbing,100,AU,1556596570,59,-34.72,135.86,67.22060000000002,11.01
97,torbay,42,PT,1556596570,81,41.42,-6.55,53.72060000000001,1.14
98,salalah,90,NO,1556596200,100,62.58,6.12,48.2,4.1
99,ilulissat,100,AU,1556593200,26,-31.97,141.45,71.6,7.2
100,darab,75,NO,1556594400,77,67.67,12.69,39.2,1.5
101,louisbourg,100,AU,1556595908,57,-25.3,152.85,78.00800000000001,6.7
102,saleaula,4,RU,1556596571,92,67.47,86.57,10.340600000000073,4.34
103,namibe,20,CA,1556595772,74,63.75,-68.52,28.4,6.2
104,qaanaaq,90,US,1556596431,70,43.14,-95.14,48.2,4.6
105,ixtapa,40,NO,1556596517,100,63.83,10.7,48.992,2.6
106,madeji,90,US,1556596562,45,42.65,-73.75,48.2,2.1
107,betioky,0,NZ,1556595484,55,-35.62,174.5,64.99400000000007,2.68
108,hofn,40,BR,1556596095,83,-3.71,-38.6,80.6,1.5
109,vanimo,1,US,1556596498,78,32.22,-98.2,75.2,2.6
110,muroto,0,FR,1556596515,81,43.56,6.97,51.8,2.1
111,college,0,NC,1556595000,50,-21.69,165.68,78.8,7.2
112,fairbanks,75,CA,1556593200,85,69.44,-133.03,24.8,4.1
113,chapaevsk,0,IT,1556596564,93,45.18,8.4,50.0,0.5
114,aswan,20,US,1556596422,82,34.88,-76.9,68.0,2.6
115,petrolina,0,ZM,1556596574,87,-14.68,28.09,57.860600000000034,2.39
116,of,0,MR,1556593200,88,20.93,-17.03,62.6,6.7
117,kaeo,40,US,1556596550,61,20.89,-156.47,80.6,5.7
118,cherskiy,20,PT,1556596510,93,38.45,-9.1,55.99400000000007,5.7
119,bay roberts,40,US,1556596564,73,27.1,-82.45,78.00800000000001,6.7
120,attawapiskat,20,IT,1556592900,81,41.0,15.66,46.4,2.6
121,hermanus,75,IN,1556593200,79,10.57,72.64,86.0,4.1
122,carlos chagas,90,KZ,1556593200,66,47.8,67.71,55.4,6.0
123,saskylakh,100,JP,1556596576,38,42.97,140.51,58.58059999999999,4.29
124,punta arenas,40,MU,1556596441,69,-20.41,57.7,77.0,6.7
125,port lincoln,40,RU,1556596576,93,68.54,146.19,29.960600000000035,2.27
126,saint-philippe,93,BR,1556596576,83,-9.87,-56.08,75.50060000000005,0.46
127,khatanga,0,ZA,1556596577,41,-30.97,22.13,62.540600000000076,5.9
128,hilo,20,CL,1556593200,100,-42.48,-73.76,37.4,1.03
129,quelimane,100,PG,1556596577,70,-2.57,150.8,84.32060000000001,0.63
130,ust-omchug,40,BD,1556593200,70,22.3,91.98,89.6,6.2
131,labuhan,31,SD,1556596578,10,13.6,26.69,78.74060000000007,5.75
132,nizhniy tsasuchey,75,MY,1556595000,78,2.88,101.5,80.6,3.6
133,south sioux city,75,JP,1556593200,93,39.28,141.86,53.6,1.5
134,pregradnaya,0,CN,1556596578,17,42.84,93.51,67.58059999999999,1.75
135,kushnarenkovo,40,AU,1556593200,43,-14.47,132.26,91.4,5.1
136,channel-port aux basques,0,ML,1556596579,7,22.68,-3.98,87.56060000000004,4.23
137,kazanskoye,75,MX,1556596540,22,22.89,-109.91,78.99800000000002,5.31
138,carnarvon,0,NZ,1556596447,65,-45.87,170.5,57.14060000000008,3.06
139,belushya guba,40,JP,1556593200,78,26.12,127.67,84.2,7.2
140,anori,100,CK,1556595000,78,-21.21,-159.78,78.8,8.7
141,san cristobal,51,RU,1556596579,86,50.68,156.12,34.64060000000008,7.55
142,mecca,29,RU,1556596580,86,63.64,54.86,24.920600000000015,3.12
143,henties bay,0,OM,1556592600,54,17.01,54.1,78.8,1.0
144,dossor,90,IS,1556595276,93,63.84,-22.43,51.998000000000026,2.1
145,airai,28,EC,1556595983,95,-0.74,-90.35,78.00800000000001,3.61
146,byron bay,75,AU,1556596422,83,-16.99,145.42,78.99800000000002,6.2
147,zulpich,0,NZ,1556595992,50,-37.02,175.85,62.99600000000005,2.68
148,meulaboh,90,US,1556596540,82,36.85,-75.98,57.992,2.87
149,dingle,100,CM,1556596582,53,8.67,14.18,85.04060000000007,1.48
150,gamovo,40,ID,1556593200,74,1.49,124.85,84.2,2.1
151,soller,39,NE,1556596582,7,13.98,10.27,79.64060000000008,2.98
152,kaitangata,97,PG,1556596582,82,-2.02,147.27,83.24060000000007,1.38
153,vallenar,40,IN,1556593200,70,16.02,80.92,89.6,1.5
154,beba,75,GH,1556593200,83,5.58,-0.11,84.2,3.6
155,esperance,90,CA,1556593200,13,63.59,-135.9,55.4,3.1
156,guarapuava,0,GM,1556596583,20,13.79,-15.05,85.40060000000005,3.35
157,alofi,0,BR,1556596583,97,-24.32,-50.62,58.400600000000054,1.01
158,new norfolk,5,RU,1556596584,29,49.42,130.09,67.58059999999999,5.22
159,sakakah,2,RU,1556596584,93,70.62,147.9,19.880599999999994,4.61
160,sabang,90,CA,1556593200,53,50.23,-63.6,24.8,9.3
161,vaitupu,0,AR,1556596584,42,-38.31,-60.23,49.22060000000001,2.96
162,mahebourg,0,BR,1556596584,87,-15.68,-38.95,79.10060000000006,2.33
163,shimoda,20,NO,1556594400,57,78.22,15.63,19.4,3.6
164,petropavlovsk-kamchatskiy,100,KI,1556596585,80,3.07,172.79,83.24060000000007,7.14
165,rabo de peixe,0,RU,1556593200,58,52.99,58.1,28.4,5.0
166,bhandaria,84,RU,1556596585,59,60.13,64.8,24.200600000000055,3.39
167,pinawa,0,ZA,1556593200,93,-29.12,26.22,46.4,1.0
168,kariba,75,TH,1556593200,66,7.89,98.4,87.8,4.6
169,borujan,82,GL,1556596585,97,60.14,-45.24,34.28059999999999,1.57
170,baracoa,90,US,1556596283,88,19.71,-155.08,71.99600000000005,2.6
171,saint-pierre,78,PE,1556596586,91,-11.1,-77.61,67.58059999999999,6.1
172,chilca,75,IN,1556593200,70,13.22,80.32,91.4,3.6
173,barentsburg,0,OM,1556596586,21,22.57,59.53,89.1806,1.31
174,bud,90,NO,1556596203,93,58.89,5.65,46.4,2.6
175,tuy hoa,72,DO,1556596587,90,18.21,-71.1,70.46060000000003,2.33
176,sokode,75,US,1556595921,69,21.32,-158.01,80.6,2.6
177,lata,100,PH,1556596587,70,5.4,125.46,83.24060000000007,1.48
178,acarau,5,MX,1556592300,74,15.86,-97.07,82.4,1.83
179,sentyabrskiy,0,RU,1556596224,48,56.73,85.44,64.99400000000007,9.0
180,san quintin,90,US,1556596570,93,40.41,-89.64,55.4,1.5
181,bara,4,ET,1556596588,95,5.77,38.9,53.000600000000055,1.88
182,kodiak,40,MU,1556596441,69,-20.34,57.76,77.0,6.7
183,urengoy,1,AU,1556593200,35,-20.73,139.49,84.2,4.6
184,mehamn,1,CA,1556593200,33,53.82,-101.24,32.0,4.1
185,kamenka,0,AO,1556596589,78,-15.19,12.15,71.1806,5.86
186,bethel,0,AR,1556593200,80,-51.62,-69.22,33.8,5.7
187,kimi,99,RU,1556596590,41,62.0,132.43,31.400600000000054,3.69
188,los llanos de aridane,100,NG,1556596590,75,7.38,8.57,80.1806,2.8
189,nikolskoye,88,EC,1556596590,85,0.07,-80.05,80.54060000000007,6.06
190,estevan,0,IR,1556593200,58,30.59,50.24,59.0,1.25
191,wanning,1,US,1556596577,73,33.19,-82.53,73.4,2.6
192,nome,0,RU,1556596590,51,50.27,85.62,42.20060000000005,2.15
193,ciudad bolivar,0,SA,1556596429,28,21.43,39.83,85.22060000000002,1.43
194,jaen,86,RU,1556596591,79,71.64,128.87,8.900600000000054,4.03
195,haines junction,0,MR,1556596591,14,20.52,-13.05,83.96060000000003,3.54
196,omsukchan,40,US,1556596380,47,60.79,-161.76,57.2,7.2
197,tsihombe,75,ES,1556596540,93,41.7,2.85,60.008,0.57
198,tucuman,91,RU,1556596592,81,70.0,135.55,13.220600000000012,4.9
199,fernandina beach,0,BR,1556596592,95,-15.46,-39.65,70.46060000000003,0.82
200,erzin,90,ES,1556596282,93,42.88,-8.55,55.99400000000007,2.6
201,horsham,90,US,1556596564,100,40.39,-90.15,55.004000000000055,3.02
202,avarua,0,DE,1556596324,100,53.91,13.03,46.004000000000055,2.1
203,vila franca do campo,75,VU,1556593200,54,-19.55,169.27,82.4,4.1
204,saint-francois,90,US,1556596573,81,37.46,-122.43,60.008,4.6
205,bol,0,RU,1556593200,38,65.95,111.51,23.0,3.0
206,karratha,100,US,1556595300,73,31.84,-102.48,71.6,3.1
207,luderitz,66,RU,1556596475,34,53.19,44.05,42.008,2.43
208,kuching,75,JP,1556596058,93,37.55,140.1,57.992,4.1
209,houlung,90,US,1556596393,74,44.37,-100.35,39.00200000000008,4.6
210,buchanan,90,AU,1556593200,93,-25.24,130.99,62.6,3.6
211,ouango,48,GL,1556596595,82,72.79,-56.15,31.400600000000054,2.12
212,sobolevo,100,LK,1556596595,78,5.97,80.42,84.86060000000003,8.27
213,iqaluit,45,BR,1556596595,85,-8.26,-49.26,76.58059999999999,1.33
214,bengkulu,100,RU,1556596147,46,54.27,39.54,37.99400000000007,0.45
215,bredasdorp,75,MX,1556596245,14,28.39,-105.62,80.6,6.2
216,nosy varika,0,BR,1556593200,88,-28.24,-48.67,66.2,2.1
217,bremerton,89,RU,1556596596,64,62.65,135.58,29.060600000000033,1.86
218,norman wells,99,MZ,1556596596,98,-11.38,38.46,69.02060000000002,1.83
219,shache,75,US,1556596386,50,61.6,-149.11,51.8,8.7
220,kruisfontein,90,US,1556596547,83,30.04,-94.42,77.0,4.6
221,emerald,82,TL,1556596597,53,-8.93,125.41,88.82060000000001,0.8
222,pangnirtung,75,CA,1556596348,64,49.53,-96.69,37.4,4.6
223,boende,100,RU,1556596598,91,64.92,77.78,6.200600000000055,3.85
224,port blair,90,CA,1556593200,40,65.28,-126.83,37.4,4.6
225,dikson,0,MG,1556596599,91,-20.55,46.8,50.66060000000003,4.7
226,geraldton,40,BR,1556593200,94,-10.15,-67.74,75.2,1.5
227,victoria,1,NZ,1556596387,47,-43.53,172.64,60.998000000000026,3.6
228,vostok,4,RU,1556596599,83,68.75,161.3,27.800600000000053,6.16
229,vardo,100,RU,1556596600,81,58.97,126.27,28.880599999999994,4.05
230,almeirim,83,RU,1556596600,96,67.55,63.78,11.060600000000033,0.69
231,saint george,90,TR,1556592600,100,38.88,40.49,37.4,0.5
232,mar del plata,100,AU,1556593200,42,-37.83,140.78,68.0,8.2
233,gympie,0,ZA,1556596600,33,-34.0,24.73,70.46060000000003,3.65
234,taoudenni,0,ES,1556596581,93,38.18,-1.13,57.00200000000008,1.0
235,barrow,90,BR,1556596601,80,-0.61,-47.36,81.62060000000001,6.22
236,namatanai,2,RU,1556596601,26,47.88,134.96,66.32060000000001,6.57
237,maniitsoq,0,TR,1556594400,76,38.6,27.08,62.6,0.5
238,kahului,20,CA,1556593200,34,55.74,-97.86,37.4,2.1
239,zhigansk,75,BR,1556593200,100,-5.2,-35.46,77.0,5.1
240,ponta do sol,20,KR,1556594400,43,37.57,126.98,69.8,3.1
241,alice springs,75,NO,1556594400,82,71.03,27.85,37.4,7.2
242,preobrazheniye,0,CN,1556596602,37,42.12,118.78,51.920600000000015,11.74
243,hay river,16,UY,1556596603,82,-33.69,-53.46,65.96060000000003,5.02
244,monterey,1,NZ,1556596317,72,-35.17,173.16,66.00200000000008,0.45
245,tlaxco,98,RU,1556596603,84,62.87,51.9,25.820600000000013,2.37
246,severo-yeniseyskiy,40,SR,1556596512,94,5.88,-55.08,77.0,3.1
247,nemuro,100,RU,1556596603,76,58.61,125.39,29.780599999999993,3.74
248,panaba,0,RU,1556596604,21,51.11,106.26,58.58059999999999,1.73
249,banyo,20,BR,1556593200,94,-5.13,-49.33,80.6,2.1
250,buin,90,CL,1556593200,87,-29.95,-71.34,57.2,1.0
251,lagoa santa,58,PH,1556596604,43,11.0,122.67,92.78059999999999,4.31
252,ifanadiana,100,MX,1556596544,34,21.47,-100.87,75.99199999999999,1.34
253,riviere-au-renard,0,AR,1556596532,35,-40.81,-62.99,55.16060000000003,6.96
254,oum hadjer,90,US,1556596510,29,45.52,-122.67,60.998000000000026,3.6
255,vanavara,0,GB,1556596602,93,51.66,-0.4,46.4,0.5
256,yizheng,75,MK,1556595000,71,41.28,20.71,50.0,5.7
257,kyshtovka,0,AO,1556596605,48,-14.92,13.49,70.82060000000001,1.82
258,cidreira,20,US,1556596507,16,64.86,-147.8,62.6,2.6
259,ayan,86,ID,1556596606,62,-9.11,124.89,85.22060000000002,1.85
260,yen bai,0,NZ,1556596202,50,-39.0,174.24,62.99600000000005,3.13
261,gazanjyk,1,US,1556596583,68,33.99,-83.72,69.99800000000002,2.47
262,saravena,90,US,1556596474,88,32.39,-96.85,78.00800000000001,1.5
263,pisco,0,IR,1556593200,72,36.69,53.54,59.0,1.0
264,urucara,0,GF,1556593200,78,4.94,-52.33,78.8,2.6
265,sitka,0,SO,1556596607,73,5.35,48.53,81.08059999999999,2.8
266,corning,90,DE,1556596580,93,51.45,8.86,46.4,1.5
267,merida,75,AO,1556593200,88,-8.83,13.24,78.8,3.1
268,dubai,90,US,1556596546,52,43.97,-111.68,44.6,8.2
269,tarrafal,1,NZ,1556596605,53,-46.28,169.85,59.0,1.79
270,brae,95,NG,1556596608,8,13.06,5.24,86.66060000000003,2.16
271,wufeng,0,IQ,1556596608,50,35.47,44.4,63.62060000000001,3.09
272,saint anthony,1,US,1556596560,30,47.69,-114.16,41.0,5.7
273,tungor,0,IR,1556593200,58,30.36,50.8,59.0,1.39
274,clyde river,1,RU,1556595621,74,55.61,37.97,41.0,1.0
275,loandjili,5,BR,1556596610,96,-32.03,-52.1,59.30060000000005,1.59
276,mys shmidta,40,CO,1556593200,65,7.58,-72.48,82.4,4.1
277,cayenne,0,ER,1556596610,49,13.93,41.69,85.04060000000007,3.07
278,zheleznodorozhnyy,75,US,1556596573,83,28.99,-80.9,75.99199999999999,2.6
279,bahia honda,100,NZ,1556596212,84,-46.13,167.69,55.004000000000055,0.45
280,ngatea,0,LY,1556596611,53,29.03,21.55,70.28059999999999,7.05
281,asau,0,NA,1556596611,41,-24.83,16.98,61.28059999999999,0.63
282,fomboni,20,US,1556596507,16,64.84,-147.72,62.6,2.6
283,la palma,100,RU,1556596611,52,54.0,90.25,53.72060000000001,4.81
284,kaba,54,RU,1556596611,75,68.05,39.51,26.900600000000054,5.43
285,yola,25,MM,1556596611,26,18.82,95.22,100.16060000000003,1.05
286,deputatskiy,23,TM,1556596612,47,38.44,57.43,57.32060000000001,1.26
287,corralillo,100,RU,1556596224,53,56.26,83.98,64.99400000000007,4.47
288,smithers,94,US,1556595979,86,36.41,-105.57,50.0,3.6
289,severo-kurilsk,1,ET,1556596612,81,8.96,38.73,56.24060000000007,0.39
290,umzimvubu,61,AU,1556596205,64,-32.27,150.89,73.99400000000007,2.24
291,mount gambier,31,GB,1556596454,93,55.69,-4.86,46.4,3.1
292,gornyy,90,UA,1556593200,100,49.99,31.57,44.6,4.0
293,general teran,37,CA,1556596549,91,43.74,-81.71,37.99400000000007,4.1
294,sola,40,CA,1556595946,49,50.03,-66.88,28.004000000000055,3.6
295,aberlour,0,AR,1556596503,54,-34.54,-58.72,60.8,1.5
296,blackwater,0,FI,1556596185,80,62.6,25.73,41.0,3.1
297,vao,98,ID,1556596615,61,-0.92,100.36,83.42060000000001,1.92
298,hambantota,0,UZ,1556593200,59,41.57,69.78,62.6,4.1
299,coihaique,75,MX,1556595988,69,21.05,-89.07,82.99400000000007,5.1
300,mirabad,90,US,1556596570,70,60.55,-151.26,46.99400000000007,4.6
301,prince rupert,100,NG,1556596616,66,9.68,6.4,83.60060000000006,3.0
302,svetlogorsk,100,NG,1556596617,21,10.31,9.75,80.36060000000003,2.34
303,grand gaube,5,CN,1556596617,31,38.94,100.46,56.060600000000036,2.6
304,meligalas,75,JP,1556596058,93,37.52,140.86,59.0,5.7
305,lorengau,100,RU,1556596617,69,66.84,32.36,37.16060000000003,0.88
306,kota kinabalu,98,EE,1556596617,62,59.1,26.19,35.540600000000076,1.52
307,christchurch,40,US,1556596301,55,35.13,-117.99,66.00200000000008,6.7
308,east london,1,MG,1556596618,87,-25.17,45.06,65.78059999999999,4.75
309,hami,90,CA,1556593200,48,68.22,-135.01,39.2,3.1
310,ishigaki,75,EC,1556595923,93,-0.39,-78.55,59.0,2.1
311,valparaiso,100,IN,1556596619,70,9.28,79.3,89.72060000000002,2.39
312,araouane,0,IT,1556596444,87,41.89,12.48,48.992,2.1
313,oktyabrskoye,0,BR,1556596619,95,-21.64,-41.05,67.22060000000002,0.55
314,bambous virieux,1,CA,1556593200,40,53.36,-104.02,37.4,5.1
315,dutlwe,75,JP,1556594916,82,33.93,134.5,66.99199999999999,4.1
316,lodwar,0,ES,1556596424,100,42.57,-0.55,48.00200000000008,1.5
317,itaituba,100,PF,1556596620,79,-16.7,-151.02,81.26060000000004,11.96
318,saint-augustin,40,BR,1556593200,94,-14.28,-39.0,80.6,1.5
319,bereda,1,GB,1556596575,100,52.47,1.45,41.0,0.76
320,tarabuco,47,RU,1556596620,87,62.71,56.19,25.100600000000053,2.86
321,freeport,39,AL,1556596621,74,40.49,19.83,56.960600000000035,4.8
322,shanting,75,MY,1556595000,70,5.42,100.33,87.00800000000001,2.6
323,sayyan,100,ID,1556596621,65,0.12,117.47,87.02060000000002,1.5
324,skerries,2,MZ,1556596621,94,-17.88,36.89,68.30060000000006,1.32
325,shellbrook,40,US,1556596452,63,47.5,-111.29,32.0,3.1
326,santiago del estero,0,KZ,1556593200,59,42.43,68.8,64.4,7.0
327,isangel,0,AU,1556596575,37,-43.03,147.26,71.00600000000003,5.7
328,bandarbeyla,4,NO,1556596502,88,64.47,12.32,42.008,1.12
329,chagda,67,ID,1556596623,71,-8.84,121.65,81.44060000000007,1.17
330,palmer,90,US,1556596618,93,39.31,-74.98,53.00600000000003,2.1
331,grand river south east,100,AO,1556596624,86,-6.13,12.37,81.62060000000001,3.54
332,kangaatsiaq,0,IN,1556596624,45,22.99,71.47,87.20060000000005,7.01
333,yelan,100,AU,1556595970,34,-29.46,149.84,78.8,5.1
334,saint-paul,5,MX,1556596036,74,15.74,-96.47,82.4,0.9
335,hovd,2,RU,1556596625,72,59.65,67.41,21.140600000000074,3.59
336,lagoa,96,RU,1556596625,60,59.24,163.07,34.28059999999999,10.58
337,yining,100,RU,1556596625,63,60.42,134.54,32.84060000000007,5.97
338,kartuzy,95,CF,1556596625,83,6.5,17.45,74.42060000000001,2.12
339,muros,72,GL,1556596626,67,60.91,-46.05,37.16060000000003,2.68
340,villa carlos paz,100,RU,1556596626,100,66.32,-179.17,33.20060000000005,2.93
341,chore,90,CA,1556593200,74,50.1,-91.92,32.0,2.6
342,ternate,99,RU,1556596626,74,67.8,130.41,9.620600000000014,1.6
343,matadi,83,BO,1556596626,91,-15.77,-68.65,42.560600000000036,3.3
344,sinop,99,CV,1556596627,83,14.9,-24.5,72.80060000000006,8.8
345,machico,8,BR,1556596627,76,-15.31,-42.01,66.6806,0.42
346,belaya gora,33,GL,1556596627,43,65.42,-52.9,45.26060000000003,11.4
347,kenai,71,PH,1556596627,72,11.72,122.09,84.14060000000008,5.13
348,padang,100,ID,1556596628,95,-0.86,131.25,77.30060000000006,1.14
349,puerto escondido,20,CA,1556596616,54,48.88,-72.44,30.991999999999997,3.6
350,rorvik,90,FR,1556596519,93,50.64,2.4,48.2,2.1
351,amderma,5,RU,1556596504,65,64.57,143.24,20.240600000000075,2.6
352,faya,0,AO,1556596628,70,-13.78,14.68,59.480599999999995,1.19
353,ilhabela,88,ES,1556596629,73,38.23,-2.07,52.64060000000008,1.77
354,thompson,80,SB,1556596629,71,-10.46,161.92,84.86060000000003,1.25
355,poya,0,IT,1556595961,93,39.25,9.18,53.6,3.1
356,mokolo,0,CU,1556596629,83,22.0,-79.37,72.62060000000001,3.49
357,chokurdakh,100,MV,1556596629,76,2.67,72.89,85.94060000000007,6.66
358,kropotkin,40,RU,1556593200,44,53.31,82.99,59.0,6.0
359,sao filipe,75,MX,1556592120,69,16.86,-99.88,80.6,2.6
360,ostrovnoy,100,KZ,1556596630,44,47.96,80.43,57.32060000000001,4.46
361,pecsvarad,0,ZW,1556596630,88,-18.53,32.12,47.60060000000006,0.65
362,qaqortoq,34,MM,1556596393,58,16.78,94.73,90.26060000000004,2.62
363,madimba,5,PF,1556596631,72,-22.43,-151.33,74.96060000000003,12.4
364,wajid,90,CA,1556596402,86,47.66,-52.73,33.008,12.9
365,laguna,0,MX,1556595925,77,31.32,-113.53,69.99800000000002,12.52
366,gibsons,28,NO,1556596502,88,64.86,11.24,42.008,3.57
367,mayumba,99,ID,1556596632,66,1.74,98.78,84.32060000000001,1.86
368,coquimbo,0,RU,1556593200,25,53.6,91.39,62.6,5.0
369,horn lake,75,NO,1556594400,83,71.0,24.66,37.4,10.3
370,mosjoen,27,RU,1556596632,30,52.99,116.91,40.58059999999999,8.14
371,kobryn,20,ES,1556596527,77,27.91,-15.45,64.4,8.7
372,kizlyar,99,RU,1556596633,37,44.75,132.04,56.060600000000036,7.18
373,barra,35,MN,1556596633,19,46.68,113.28,55.70060000000005,6.99
374,tacuarembo,75,JP,1556596500,88,34.47,136.83,62.99600000000005,7.2
375,abu zabad,99,RU,1556596633,97,69.38,178.42,31.760600000000032,3.35
376,sao felix do xingu,90,US,1556595957,66,41.12,-100.77,37.4,4.1
377,yeppoon,52,RU,1556596634,50,52.79,46.74,34.82060000000001,1.67
378,ponoka,75,IN,1556593200,70,11.67,92.75,86.0,5.1
379,togul,90,US,1556596541,87,34.64,-120.46,57.992,4.1
380,harlingen,100,CA,1556596634,30,54.77,-101.88,38.24060000000007,4.08
381,diego de almagro,90,US,1556596421,86,46.66,-95.65,39.2,2.43
382,beisfjord,40,DO,1556595985,94,19.3,-70.35,75.2,4.1
383,kavieng,1,BR,1556596635,95,-20.63,-46.0,61.82060000000001,0.23
384,san patricio,94,BR,1556596635,85,-7.53,-46.04,75.32060000000001,1.39
385,kenitra,40,TW,1556596625,55,24.75,121.75,91.4,4.1
386,theog,75,NO,1556592600,77,70.86,29.09,35.6,7.2
387,shelburne,99,BR,1556596636,99,-1.71,-47.89,73.88059999999999,0.77
388,tazovskiy,20,TH,1556596567,63,12.25,102.51,93.2,3.6
389,sire,0,BW,1556596636,46,-26.02,22.4,65.24060000000007,5.1
390,grand bend,100,ID,1556596636,93,-3.36,135.5,79.46060000000003,1.67
391,galesong,100,LR,1556596636,87,6.75,-11.37,79.82060000000001,1.46
392,guanica,20,CA,1556593200,31,55.34,-123.09,48.2,2.1
393,gotsu,1,US,1556596504,88,32.78,-91.91,77.0,2.43
394,bulgan,100,BO,1556596637,88,-16.98,-65.13,72.44060000000007,0.89
395,vega de alatorre,74,BR,1556596517,87,-1.2,-46.02,78.38059999999999,2.32
396,dalvik,0,NA,1556596637,53,-20.37,14.96,72.44060000000007,1.04
397,nishihara,100,RU,1556596637,69,62.16,117.65,37.16060000000003,2.2
398,wakema,80,CD,1556596638,65,-6.42,20.79,73.88059999999999,1.6
399,parainen,1,MG,1556596638,79,-13.19,49.05,73.34060000000008,4.03
400,oda,0,BR,1556593200,82,-19.76,-44.31,68.0,1.5
401,nago,80,MW,1556596638,96,-13.8,32.89,60.020600000000016,3.72
402,sohag,79,KE,1556596638,86,-1.85,36.79,65.96060000000003,2.24
403,mugur-aksy,75,US,1556596638,76,36.67,-121.66,59.0,4.6
404,trofors,0,PL,1556596411,93,54.79,18.4,46.004000000000055,2.1
405,barillas,100,RU,1556596533,26,44.76,136.29,54.08059999999999,4.13
406,gao,100,LY,1556596639,39,31.86,10.98,63.08059999999999,2.53
407,chitral,97,CN,1556596639,36,32.73,108.99,74.60060000000006,0.46
408,tabialan,5,CA,1556593200,57,50.7,-127.42,57.2,3.6
409,machali,57,RU,1556596640,23,46.45,135.83,62.900600000000054,3.5
410,brandenburg,48,SD,1556596640,9,12.35,29.25,82.16060000000003,4.85
411,santa fe,0,CA,1556596640,51,66.15,-65.72,27.620600000000014,2.61
412,harper,44,ID,1556596640,43,-3.75,103.64,87.20060000000005,1.15
413,marinskaya,0,FR,1556596624,100,43.11,0.72,44.99600000000005,1.5
414,trincomalee,100,SE,1556596520,93,60.15,15.18,48.992,2.6
415,saint-georges,0,ZA,1556596641,42,-29.67,22.74,64.34060000000008,4.1
416,copalillo,0,FR,1556596029,86,45.28,6.35,39.2,1.0
417,jiddah,0,NC,1556593200,47,-22.28,166.46,78.8,6.2
418,alakurtti,99,RU,1556596641,92,61.13,74.84,9.260600000000032,5.42
419,jertih,29,NZ,1556595916,66,-39.94,176.59,53.00600000000003,3.58
420,chameza,75,BR,1556594820,94,-7.47,-34.81,78.8,2.1
421,pingzhuang,55,FR,1556596624,93,48.38,-4.62,51.008,1.5
422,nenjiang,52,NZ,1556596642,71,-45.41,167.72,50.12060000000001,1.71
423,guerrero negro,0,RU,1556596643,90,67.46,153.71,29.780599999999993,5.22
424,irbit,40,BR,1556596800,93,-23.68,-45.44,64.4,1.4
425,kirovsk,90,CA,1556596379,86,48.86,-53.99,28.994000000000074,7.7
426,rosamorada,75,AU,1556596634,77,-28.95,153.24,73.4,2.1
427,omihachiman,77,MX,1556596643,73,20.87,-90.4,82.70060000000005,7.47
428,pervomayskoye,1,US,1556596356,64,30.83,-83.28,73.99400000000007,1.5
429,ust-kut,1,US,1556596500,83,36.24,-90.06,73.4,2.6
430,general pico,90,CA,1556595660,44,58.81,-122.69,41.0,4.1
431,komsomolskiy,41,GW,1556596644,73,11.28,-15.83,78.56060000000004,5.85
432,sun city west,100,RU,1556596644,81,60.47,166.1,36.62060000000001,4.65
433,jaroslaw,1,CL,1556596645,77,-25.41,-70.49,61.82060000000001,1.21
434,mutsamudu,0,SN,1556595000,82,14.69,-16.54,75.2,10.8
435,gopalpur,67,ZM,1556596645,97,-9.33,32.75,60.020600000000016,2.41
436,yuxia,40,CA,1556596380,12,60.72,-135.06,55.4,4.6
437,mogadishu,0,ZA,1556596645,73,-23.67,27.74,56.420600000000015,1.97
438,olafsvik,75,PW,1556596200,74,7.04,134.26,86.0,4.1
439,tabiauea,75,US,1556596400,65,21.39,-157.74,78.99800000000002,5.7
440,te anau,16,RU,1556596646,65,56.26,32.09,36.26060000000003,2.25
441,parry sound,0,BR,1556596646,85,-30.17,-50.22,64.34060000000008,2.66
442,lavrentiya,100,UZ,1556596406,46,39.25,65.15,63.08059999999999,6.02
443,korla,98,CN,1556596646,19,34.66,112.42,74.06060000000004,3.4
444,kushiro,20,PT,1556596621,93,39.36,-9.38,57.2,5.7
445,leshukonskoye,100,RU,1556596646,99,65.58,-170.99,31.940600000000074,3.48
446,opuwo,100,RU,1556596647,75,55.68,76.74,35.000600000000055,4.1
447,south river,40,CA,1556595946,49,50.2,-66.38,28.004000000000055,3.6
448,san pedro,66,AU,1556593200,20,-20.31,118.58,93.2,5.7
449,divnogorsk,96,RO,1556595000,93,46.14,24.52,50.0,1.5
450,katsuura,38,ID,1556596647,63,-6.5,108.06,88.10060000000006,1.4
451,tual,34,CN,1556596648,74,24.09,109.99,74.60060000000006,5.09
452,kampot,21,RU,1556596648,25,50.11,129.44,67.58059999999999,7.81
453,lethem,20,PR,1556596556,69,18.37,-65.72,78.8,4.1
454,isabela,0,BR,1556593200,88,-20.25,-43.81,68.0,0.5
455,jiazi,0,VE,1556596648,81,9.77,-63.21,71.36060000000003,1.94
456,tura,14,ZA,1556596649,91,-31.68,18.49,61.460600000000035,3.18
457,eureka,75,MZ,1556593200,100,-15.12,39.26,68.0,2.6
458,vaovai,75,BZ,1556593200,78,18.04,-88.66,82.4,3.6
459,odesskoye,0,ZA,1556596649,47,-28.53,28.82,47.60060000000006,1.96
460,trelaze,0,RU,1556593200,58,53.14,59.15,28.4,5.0
461,havoysund,90,RU,1556596402,100,64.73,177.51,33.8,20.0
462,inhambane,40,MX,1556592540,12,23.99,-104.67,69.8,3.6
463,bonnyville,61,AR,1556596643,33,-36.62,-64.29,49.58059999999999,2.45
464,aviles,0,PH,1556596652,50,17.54,120.52,91.88059999999999,3.61
465,petrodvorets,75,AU,1556596634,78,-28.98,153.42,73.4,4.6
466,wanlaweyn,1,CA,1556596624,62,49.16,-123.14,59.0,1.4
467,namangan,90,CA,1556593800,92,58.52,-117.13,26.6,3.6
468,vestmannaeyjar,100,AU,1556596653,85,-18.65,146.16,73.34060000000008,2.66
469,krasnyy chikoy,24,RU,1556596653,39,48.98,131.55,63.08059999999999,3.18
470,talnakh,6,PY,1556596653,80,-23.49,-58.8,69.56060000000004,1.98
471,hirara,100,BR,1556596654,98,-1.82,-44.87,73.70060000000005,0.05
472,bixby,0,AF,1556596654,48,36.41,64.91,61.460600000000035,3.2
473,port maria,5,RU,1556596654,74,54.43,31.9,37.880599999999994,2.1
474,niagara falls,90,CA,1556596379,86,49.14,-55.34,30.002000000000077,7.7
475,acapulco,93,VE,1556596655,73,9.0,-71.91,80.72060000000002,2.17
476,turayf,92,PG,1556596655,48,-6.29,145.87,76.40060000000005,1.23
477,khorinsk,0,AR,1556593200,52,-45.87,-67.48,42.8,4.1
478,tarakan,0,PT,1556596655,81,38.81,-7.46,52.82060000000001,1.94
479,tonosho,48,ZM,1556596655,95,-10.39,28.7,60.920600000000015,1.68
480,gemena,75,NO,1556595985,74,68.56,14.91,39.2,0.5
481,jalu,0,ML,1556596656,11,20.2,1.01,82.88059999999999,4.3
482,kologriv,20,CU,1556596397,88,22.79,-82.51,75.2,4.6
483,taburi,88,AU,1556596656,47,-35.3,148.22,69.02060000000002,4.18
484,kudahuvadhoo,1,US,1556596500,100,34.65,-82.78,68.0,1.5
485,tahe,100,RU,1556596656,92,61.94,76.66,10.160600000000034,5.28
486,fevralsk,1,US,1556596656,60,34.01,-85.26,73.4,2.1
487,ferme-neuve,0,CA,1556596657,15,60.75,-137.51,45.62060000000001,2.14
488,alta floresta,20,NG,1556593200,88,6.63,3.35,80.6,1.0
489,cuicatlan,40,CN,1556593200,81,36.06,103.82,44.6,2.0
490,dolores,94,TZ,1556596658,80,-4.97,39.83,82.34060000000008,7.96
491,darhan,100,PF,1556596658,80,-16.52,-151.75,81.80060000000006,12.2
492,plavinas,40,NU,1556593200,79,-19.06,-169.92,84.2,3.1
493,yaan,75,NO,1556596517,93,63.66,9.57,48.992,1.0
494,samalaeulu,100,CA,1556595932,77,48.65,-53.11,32.0,8.05
495,marcona,10,RU,1556596659,30,51.13,133.04,64.34060000000008,4.18
496,payakumbuh,5,CN,1556596659,51,29.72,112.52,72.26060000000004,1.9
497,tingrela,75,MX,1556595962,69,23.22,-106.42,75.99199999999999,1.5
498,gilgil,0,GR,1556596504,62,39.1,22.35,53.99600000000005,5.1
499,pimentel,75,AT,1556596647,93,48.64,13.53,46.004000000000055,4.6
500,obuasi,78,BR,1556596660,82,-6.22,-57.76,77.12060000000001,0.88
501,mattru,75,US,1556596620,93,41.42,-91.04,53.6,1.49
502,edd,20,BB,1556593200,78,13.22,-59.52,78.8,5.7
503,launceston,40,CO,1556593200,67,4.4,-74.39,57.2,2.28
504,seoul,15,AU,1556596512,24,-36.31,145.05,71.99600000000005,5.31
505,chulman,40,US,1556596560,72,35.98,-114.83,60.998000000000026,1.5
506,hamilton,90,US,1556596633,77,30.3,-99.24,71.99600000000005,2.1
507,chake chake,2,CN,1556596631,43,37.38,117.96,73.99400000000007,0.89
508,toftir,2,CU,1556596661,76,22.9,-83.16,79.82060000000001,8.57
509,poum,0,TR,1556594400,81,38.62,34.71,51.998000000000026,1.0
510,hobyo,75,CN,1556596602,87,31.41,121.49,66.00200000000008,4.0
511,parana,57,VN,1556596583,27,13.08,109.3,100.70060000000005,0.95
512,nuristan,90,CA,1556596533,100,44.08,-80.2,37.99400000000007,3.1
513,santiago,90,US,1556596451,100,41.9,-84.04,44.6,0.95
514,bartica,67,ID,1556596662,48,-2.54,115.51,92.24060000000007,0.5
515,coroico,93,ID,1556596663,64,-7.37,108.54,87.74060000000007,1.05
516,canto do buriti,75,ES,1556596608,93,41.97,2.79,57.992,0.57
517,maurawan,100,RU,1556596663,68,56.17,107.45,35.360600000000034,6.22
518,kiruna,90,NO,1556596200,100,62.91,6.91,48.2,4.1
519,liverpool,93,GB,1556594400,93,60.4,-1.35,46.4,3.1
520,bilibino,0,EG,1556593200,16,24.09,32.9,75.2,3.1
521,cap-aux-meules,30,GB,1556596454,93,55.39,-4.0,46.4,3.1
522,tanete,68,CN,1556596664,25,52.34,124.71,52.460600000000035,3.62
523,carbonia,5,US,1556596658,71,37.55,-121.99,60.008,3.6
524,ancud,0,RU,1556596665,57,63.92,127.47,28.520600000000012,3.85
525,berlevag,75,AL,1556596200,87,41.39,19.66,53.6,2.1
526,kodinar,100,IS,1556596665,91,63.44,-20.27,47.60060000000006,10.42
527,kampene,0,IR,1556593200,43,32.86,59.22,55.4,2.29
528,beatrice,1,US,1556596620,34,47.66,-117.42,51.8,2.1
529,turukhansk,7,CA,1556596665,74,49.91,-109.46,32.12060000000001,3.82
530,fort nelson,75,US,1556596629,78,33.31,-95.96,77.0,1.5
531,birjand,100,IE,1556596623,92,54.63,-8.45,50.0,4.47
532,sorel,90,ES,1556596209,87,43.27,-7.54,55.99400000000007,0.5
533,teghra,1,US,1556596500,88,36.88,-89.59,71.00600000000003,2.1
534,yurga,98,RU,1556596666,42,54.72,135.31,56.420600000000015,4.81
535,dosso,0,RU,1556596667,56,53.51,142.97,46.70060000000005,3.14
536,praia,75,JP,1556596125,94,31.5,131.29,69.00800000000001,1.0
537,tiarei,75,GB,1556596531,93,50.16,-5.07,53.99600000000005,4.1
538,ostersund,0,NA,1556593331,94,-22.12,14.28,57.992,1.34
539,stornoway,20,CA,1556593200,17,54.78,-127.17,55.4,3.6
540,gravdal,40,LA,1556593200,55,18.5,102.42,91.4,1.56
541,quzhou,22,NE,1556596668,9,13.32,12.61,84.50060000000005,4.48
542,bubaque,93,VE,1556596668,74,9.96,-71.12,86.66060000000003,2.19
543,san juan,52,CN,1556596668,38,24.19,102.82,72.26060000000004,5.48
544,emba,0,IN,1556596668,28,30.78,78.62,39.14060000000008,1.44
545,marsa matruh,95,TD,1556596668,10,14.53,20.93,85.58059999999999,2.87
546,nasrullaganj,0,RU,1556593200,61,61.04,76.11,17.6,4.0
547,tawang,0,EG,1556593200,88,31.35,27.25,64.4,3.22
548,japaratuba,20,ID,1556593200,62,-3.32,114.59,87.8,1.5
549,longyan,0,RU,1556596669,70,66.77,123.37,20.240600000000075,2.84
550,beringovskiy,27,CN,1556596670,69,23.74,109.23,75.14060000000008,4.89
551,bontang,20,JM,1556593200,69,18.18,-76.45,80.6,3.6
